{
      "svgPath": targetSVG,
      "zoomLevel": 5,
      "scale": .5,
      "title": "www.googletagmanager.com",
      "latitude": 37.4192,
      "longitude": -122.0574,
      "color": "yellow",
      "selectedColor": "green"
    }, {
      "svgPath": targetSVG,
      "zoomLevel": 5,
      "scale": .5,
      "title": "out.reddit.com",
      "latitude": 39.0481,
      "longitude": -77.4729,
      "color": "yellow",
      "selectedColor": "green"
    }, {
      "svgPath": targetSVG,
      "zoomLevel": 5,
      "scale": .5,
      "title": "play.google.com",
      "latitude": 37.4192,
      "longitude": -122.0574,
      "color": "yellow",
      "selectedColor": "green"
    }, {
      "svgPath": targetSVG,
      "zoomLevel": 5,
      "scale": .5,
      "title": "c.trello.com",
      "latitude": 47.6103,
      "longitude": -122.3341,
      "color": "yellow",
      "selectedColor": "green"
    }, {
      "svgPath": targetSVG,
      "zoomLevel": 5,
      "scale": .5,
      "title": "www.redditmedia.com",
      "latitude": 40.7143,
      "longitude": -74.006,
      "color": "yellow",
      "selectedColor": "green"
    }, {
      "svgPath": targetSVG,
      "zoomLevel": 5,
      "scale": .5,
      "title": "pixel.redditmedia.com",
      "latitude": 39.0481,
      "longitude": -77.4729,
      "color": "yellow",
      "selectedColor": "green"
    }, {
      "svgPath": targetSVG,
      "zoomLevel": 5,
      "scale": .5,
      "title": "www.paypal.com",
      "latitude": 42.3626,
      "longitude": -71.0843,
      "color": "yellow",
      "selectedColor": "green"
    }, {
      "svgPath": targetSVG,
      "zoomLevel": 5,
      "scale": .5,
      "title": "www.reddit.com",
      "latitude": 40.7143,
      "longitude": -74.006,
      "color": "yellow",
      "selectedColor": "green"
    }, {
      "svgPath": targetSVG,
      "zoomLevel": 5,
      "scale": .5,
      "title": "aax.amazon-adsystem.com",
      "latitude": 39.0481,
      "longitude": -77.4729,
      "color": "yellow",
      "selectedColor": "green"
    }, {
      "svgPath": targetSVG,
      "zoomLevel": 5,
      "scale": .5,
      "title": "www.redditstatic.com",
      "latitude": 40.7143,
      "longitude": -74.006,
      "color": "yellow",
      "selectedColor": "green"
    }, {
      "svgPath": targetSVG,
      "zoomLevel": 5,
      "scale": .5,
      "title": "cx.atdmt.com",
      "latitude": 53.3472,
      "longitude": -6.2439,
      "color": "yellow",
      "selectedColor": "green"
    }, {
      "svgPath": targetSVG,
      "zoomLevel": 5,
      "scale": .5,
      "title": "trello-backgrounds.s3.amazonaws.com",
      "latitude": 39.0481,
      "longitude": -77.4729,
      "color": "yellow",
      "selectedColor": "green"
    }, {
      "svgPath": targetSVG,
      "zoomLevel": 5,
      "scale": .5,
      "title": "0.docs.google.com",
      "latitude": 37.4192,
      "longitude": -122.0574,
      "color": "yellow",
      "selectedColor": "green"
    }, {
      "svgPath": targetSVG,
      "zoomLevel": 5,
      "scale": .5,
      "title": "c.amazon-adsystem.com",
      "latitude": 47.542,
      "longitude": -122.3123,
      "color": "yellow",
      "selectedColor": "green"
    }, {
      "svgPath": targetSVG,
      "zoomLevel": 5,
      "scale": .5,
      "title": "accounts.google.com",
      "latitude": 37.4192,
      "longitude": -122.0574,
      "color": "yellow",
      "selectedColor": "green"
    }, {
      "svgPath": targetSVG,
      "zoomLevel": 5,
      "scale": .5,
      "title": "trello.com",
      "latitude": 42.3626,
      "longitude": -71.0843,
      "color": "yellow",
      "selectedColor": "green"
    }, {
      "svgPath": targetSVG,
      "zoomLevel": 5,
      "scale": .5,
      "title": "rrc.rlcdn.com",
      "latitude": 35.0887,
      "longitude": -92.4421,
      "color": "yellow",
      "selectedColor": "green"
    }, {
      "svgPath": targetSVG,
      "zoomLevel": 5,
      "scale": .5,
      "title": "platform.twitter.com",
      "latitude": 37.7758,
      "longitude": -122.4128,
      "color": "yellow",
      "selectedColor": "green"
    }, {
      "svgPath": targetSVG,
      "zoomLevel": 5,
      "scale": .5,
      "title": "www.googleapis.com",
      "latitude": 37.4192,
      "longitude": -122.0574,
      "color": "yellow",
      "selectedColor": "green"
    }, {
      "svgPath": targetSVG,
      "zoomLevel": 5,
      "scale": .5,
      "title": "s3-us-west-2.amazonaws.com",
      "latitude": 45.8696,
      "longitude": -119.688,
      "color": "yellow",
      "selectedColor": "green"
    }, {
      "svgPath": targetSVG,
      "zoomLevel": 5,
      "scale": .5,
      "title": "rules.quantcount.com",
      "latitude": 47.6344,
      "longitude": -122.3422,
      "color": "yellow",
      "selectedColor": "green"
    }, {
      "svgPath": targetSVG,
      "zoomLevel": 5,
      "scale": .5,
      "title": "horizonte.browserapps.amazon.com",
      "latitude": 39.0481,
      "longitude": -77.4729,
      "color": "yellow",
      "selectedColor": "green"
    }, {
      "svgPath": targetSVG,
      "zoomLevel": 5,
      "scale": .5,
      "title": "fonts.googleapis.com",
      "latitude": 37.4192,
      "longitude": -122.0574,
      "color": "yellow",
      "selectedColor": "green"
    }, {
      "svgPath": targetSVG,
      "zoomLevel": 5,
      "scale": .5,
      "title": "secure.quantserve.com",
      "latitude": 37.751,
      "longitude": -97.822,
      "color": "yellow",
      "selectedColor": "green"
    }, {
      "svgPath": targetSVG,
      "zoomLevel": 5,
      "scale": .5,
      "title": "i.imgur.com",
      "latitude": 40.7143,
      "longitude": -74.006,
      "color": "yellow",
      "selectedColor": "green"
    }, {
      "svgPath": targetSVG,
      "zoomLevel": 5,
      "scale": .5,
      "title": "www.thelogodb.com",
      "latitude": 37.751,
      "longitude": -97.822,
      "color": "yellow",
      "selectedColor": "green"
    }, {
      "svgPath": targetSVG,
      "zoomLevel": 5,
      "scale": .5,
      "title": "sb.scorecardresearch.com",
      "latitude": 42.3626,
      "longitude": -71.0843,
      "color": "yellow",
      "selectedColor": "green"
    }, {
      "svgPath": targetSVG,
      "zoomLevel": 5,
      "scale": .5,
      "title": "clientservices.googleapis.com",
      "latitude": 37.4192,
      "longitude": -122.0574,
      "color": "yellow",
      "selectedColor": "green"
    }, {
      "svgPath": targetSVG,
      "zoomLevel": 5,
      "scale": .5,
      "title": "facebook.com",
      "latitude": 53.3472,
      "longitude": -6.2439,
      "color": "yellow",
      "selectedColor": "green"
    }, {
      "svgPath": targetSVG,
      "zoomLevel": 5,
      "scale": .5,
      "title": "engine.a.redditmedia.com",
      "latitude": 39.0481,
      "longitude": -77.4729,
      "color": "yellow",
      "selectedColor": "green"
    }, {
      "svgPath": targetSVG,
      "zoomLevel": 5,
      "scale": .5,
      "title": "s.imgur.com",
      "latitude": 42.3584,
      "longitude": -71.0598,
      "color": "yellow",
      "selectedColor": "green"
    }, {
      "svgPath": targetSVG,
      "zoomLevel": 5,
      "scale": .5,
      "title": "aa.agkn.com",
      "latitude": 38.9881,
      "longitude": -77.4755,
      "color": "yellow",
      "selectedColor": "green"
    }, {
      "svgPath": targetSVG,
      "zoomLevel": 5,
      "scale": .5,
      "title": "b.thumbs.redditmedia.com",
      "latitude": 40.7143,
      "longitude": -74.006,
      "color": "yellow",
      "selectedColor": "green"
    }, {
      "svgPath": targetSVG,
      "zoomLevel": 5,
      "scale": .5,
      "title": "api.imgur.com",
      "latitude": 42.3584,
      "longitude": -71.0598,
      "color": "yellow",
      "selectedColor": "green"
    }, {
      "svgPath": targetSVG,
      "zoomLevel": 5,
      "scale": .5,
      "title": "reddit.com",
      "latitude": 37.7697,
      "longitude": -122.3933,
      "color": "yellow",
      "selectedColor": "green"
    }, {
      "svgPath": targetSVG,
      "zoomLevel": 5,
      "scale": .5,
      "title": "s.amazon-adsystem.com",
      "latitude": 39.0481,
      "longitude": -77.4729,
      "color": "yellow",
      "selectedColor": "green"
    }, {
      "svgPath": targetSVG,
      "zoomLevel": 5,
      "scale": .5,
      "title": "fls-na.amazon.com",
      "latitude": 39.0481,
      "longitude": -77.4729,
      "color": "yellow",
      "selectedColor": "green"
    }, {
      "svgPath": targetSVG,
      "zoomLevel": 5,
      "scale": .5,
      "title": "www.youtube.com",
      "latitude": 37.4192,
      "longitude": -122.0574,
      "color": "yellow",
      "selectedColor": "green"
    }, {
      "svgPath": targetSVG,
      "zoomLevel": 5,
      "scale": .5,
      "title": "beacons.gcp.gvt2.com",
      "latitude": 37.4192,
      "longitude": -122.0574,
      "color": "yellow",
      "selectedColor": "green"
    }, {
      "svgPath": targetSVG,
      "zoomLevel": 5,
      "scale": .5,
      "title": "www.googleadservices.com",
      "latitude": 37.4192,
      "longitude": -122.0574,
      "color": "yellow",
      "selectedColor": "green"
    }, {
      "svgPath": targetSVG,
      "zoomLevel": 5,
      "scale": .5,
      "title": "gfycat.com",
      "latitude": 47.542,
      "longitude": -122.3123,
      "color": "yellow",
      "selectedColor": "green"
    }, {
      "svgPath": targetSVG,
      "zoomLevel": 5,
      "scale": .5,
      "title": "p.imgur.com",
      "latitude": 42.3584,
      "longitude": -71.0598,
      "color": "yellow",
      "selectedColor": "green"
    }, {
      "svgPath": targetSVG,
      "zoomLevel": 5,
      "scale": .5,
      "title": "tags.bluekai.com",
      "latitude": 42.3626,
      "longitude": -71.0843,
      "color": "yellow",
      "selectedColor": "green"
    }, {
      "svgPath": targetSVG,
      "zoomLevel": 5,
      "scale": .5,
      "title": "www.themealdb.com",
      "latitude": 51.4964,
      "longitude": -0.1224,
      "color": "yellow",
      "selectedColor": "green"
    }, {
      "svgPath": targetSVG,
      "zoomLevel": 5,
      "scale": .5,
      "title": "su.addthis.com",
      "latitude": 42.3626,
      "longitude": -71.0843,
      "color": "yellow",
      "selectedColor": "green"
    }, {
      "svgPath": targetSVG,
      "zoomLevel": 5,
      "scale": .5,
      "title": "lastpass.com",
      "latitude": 52.35,
      "longitude": 4.9167,
      "color": "yellow",
      "selectedColor": "green"
    }, {
      "svgPath": targetSVG,
      "zoomLevel": 5,
      "scale": .5,
      "title": "apis.google.com",
      "latitude": 37.4192,
      "longitude": -122.0574,
      "color": "yellow",
      "selectedColor": "green"
    }, {
      "svgPath": targetSVG,
      "zoomLevel": 5,
      "scale": .5,
      "title": "fonts.gstatic.com",
      "latitude": 37.4192,
      "longitude": -122.0574,
      "color": "yellow",
      "selectedColor": "green"
    }, {
      "svgPath": targetSVG,
      "zoomLevel": 5,
      "scale": .5,
      "title": "idsync.rlcdn.com",
      "latitude": 39.0481,
      "longitude": -77.4729,
      "color": "yellow",
      "selectedColor": "green"
    }, {
      "svgPath": targetSVG,
      "zoomLevel": 5,
      "scale": .5,
      "title": "a.trellocdn.com",
      "latitude": 42.3626,
      "longitude": -71.0843,
      "color": "yellow",
      "selectedColor": "green"
    }, {
      "svgPath": targetSVG,
      "zoomLevel": 5,
      "scale": .5,
      "title": "www.thecocktaildb.com",
      "latitude": 37.751,
      "longitude": -97.822,
      "color": "yellow",
      "selectedColor": "green"
    }, {
      "svgPath": targetSVG,
      "zoomLevel": 5,
      "scale": .5,
      "title": "www.thesportsdb.com",
      "latitude": 37.751,
      "longitude": -97.822,
      "color": "yellow",
      "selectedColor": "green"
    }, {
      "svgPath": targetSVG,
      "zoomLevel": 5,
      "scale": .5,
      "title": "www.googletagservices.com",
      "latitude": 37.4192,
      "longitude": -122.0574,
      "color": "yellow",
      "selectedColor": "green"
    }, {
      "svgPath": targetSVG,
      "zoomLevel": 5,
      "scale": .5,
      "title": "www.facebook.com",
      "latitude": 53.3472,
      "longitude": -6.2439,
      "color": "yellow",
      "selectedColor": "green"
    }, {
      "svgPath": targetSVG,
      "zoomLevel": 5,
      "scale": .5,
      "title": "a.thumbs.redditmedia.com",
      "latitude": 40.7143,
      "longitude": -74.006,
      "color": "yellow",
      "selectedColor": "green"
    }, {
      "svgPath": targetSVG,
      "zoomLevel": 5,
      "scale": .5,
      "title": "www.google.com",
      "latitude": 37.4192,
      "longitude": -122.0574,
      "color": "yellow",
      "selectedColor": "green"
    }, {
      "svgPath": targetSVG,
      "zoomLevel": 5,
      "scale": .5,
      "title": "www.theaudiodb.com",
      "latitude": 51.4964,
      "longitude": -0.1224,
      "color": "yellow",
      "selectedColor": "green"
    }, {
      "svgPath": targetSVG,
      "zoomLevel": 5,
      "scale": .5,
      "title": "ssl.google-analytics.com",
      "latitude": 37.4192,
      "longitude": -122.0574,
      "color": "yellow",
      "selectedColor": "green"
    }, {
      "svgPath": targetSVG,
      "zoomLevel": 5,
      "scale": .5,
      "title": "www.google-analytics.com",
      "latitude": 37.4192,
      "longitude": -122.0574,
      "color": "yellow",
      "selectedColor": "green"
    }, {
      "svgPath": targetSVG,
      "zoomLevel": 5,
      "scale": .5,
      "title": "syndication.twitter.com",
      "latitude": 37.7758,
      "longitude": -122.4128,
      "color": "yellow",
      "selectedColor": "green"
    }, {
      "svgPath": targetSVG,
      "zoomLevel": 5,
      "scale": .5,
      "title": "ubp-common-us-prod.s3.amazonaws.com",
      "latitude": 45.8696,
      "longitude": -119.688,
      "color": "yellow",
      "selectedColor": "green"
    }, {
      "svgPath": targetSVG,
      "zoomLevel": 5,
      "scale": .5,
      "title": "e.reddit.com",
      "latitude": 40.7143,
      "longitude": -74.006,
      "color": "yellow",
      "selectedColor": "green"
    }, 